{
"type": "FeatureCollection", 
"features": [
{"type": "Feature", "id": 0, "properties": {"index": "0", "item": "6", "provenance": "16th century, commissioned by Oba Esigie (r. 1517-1550s) or his son Oba Orhogbua (r. 1550s-1570s), Royal Palace, Benin City", "place": "Royal Palace, Benin City", "yearStr": "1599", "year": "1599"}, "geometry": { "type": "Point","coordinates": [5.6442201, 6.2870338] } },
{"type": "Feature", "id": 1, "properties": {"index": "1", "item": "6", "provenance": "by descent to Oba Ovonramwen (Ovonramwen Nogbaisi, b. about 1857 – d. about 1914; r. 1888 - 1897);", "place": "Royal Palace, Benin City", "yearStr": "1857", "year": "1857"}, "geometry": { "type": "Point","coordinates": [5.6142201, 6.3670338] } },
{"type": "Feature", "id": 2, "properties": {"index": "2", "item": "6", "provenance": "1897, taken from the Royal Palace during the British military occupation of Benin and kept by the Crown Agent of the Niger Coast Protectorate, London;", "place": "rivers state, nigeria", "yearStr": "1897", "year": "1897"}, "geometry": { "type": "Point","coordinates": [6.961237799999999, 4.7996414] } },
{"type": "Feature", "id": 3, "properties": {"index": "3", "item": "6", "provenance": "1897, taken from the Royal Palace during the British military occupation of Benin and kept by the Crown Agent of the Niger Coast Protectorate, London;", "place": "London, England", "yearStr": "1898", "year": "1898"}, "geometry": { "type": "Point","coordinates": [-0.1577583, 51.542350899999995] } },
{"type": "Feature", "id": 4, "properties": {"index": "4", "item": "6", "provenance": "March 24, 1898, sold by the Crown Agent of the Niger Coast Protectorate for £ 6 to Lt.-General Augustus Henry Pitt-Rivers (b. 1827 - d. 1900), Farnham, England;", "place": "Farnham, England", "yearStr": "24/3/1898", "year": "1898"}, "geometry": { "type": "Point","coordinates": [-0.778802, 51.199321] } },
{"type": "Feature", "id": 5, "properties": {"index": "5", "item": "6", "provenance": "until the 1960s, kept at the Pitt-Rivers Museum, Farnham, and passed by descent within the family", "place": "Pitt-Rivers Museum, Farnham, England", "yearStr": "1965", "year": "1965"}, "geometry": { "type": "Point","coordinates": [-1.2302001, 51.773832700000014] } },
{"type": "Feature", "id": 6, "properties": {"index": "6", "item": "6", "provenance": "1970s, sold upon the dispersal of the collection", "place": "Pitt-Rivers Museum, Farnham, England", "yearStr": "1970", "year": "1970"}, "geometry": { "type": "Point","coordinates": [-1.2502001, 51.72883270000001] } },
{"type": "Feature", "id": 7, "properties": {"index": "7", "item": "6", "provenance": "By 2011, Robert Owen Lehman, Rochester, NY;", "place": "Rochester, NY", "yearStr": "2011", "year": "2011"}, "geometry": { "type": "Point","coordinates": [-77.5888465, 43.17157789999999] } },
{"type": "Feature", "id": 8, "properties": {"index": "8", "item": "6", "provenance": "2012, promised gift of Robert Owen Lehman to the MFA.", "place": "MFA, Boston", "yearStr": "2012", "year": "2012"}, "geometry": { "type": "Point","coordinates": [-71.124048, 42.294381] } }
]}