{
"type": "FeatureCollection", 
"features": [
{"type": "Feature", "id": 0, "properties": {"index": "0", "item": "1", "name": "Commemorative head", "institution": "MFA", "img_url": "https://collections.mfa.org/internal/media/dispatcher/1226219/preview", "item_link": "https://collections.mfa.org/objects/558343/commemorative-head", "keyword": "Sculpture", "people": "nan", "repatriated": "n"}, "geometry": { "type": "Point","coordinates": [-71.119048, 42.389381] } },
{"type": "Feature", "id": 1, "properties": {"index": "1", "item": "2", "name": "Commemorative head (2)", "institution": "MFA", "img_url": "https://collections.mfa.org/internal/media/dispatcher/1225793/preview", "item_link": "https://collections.mfa.org/objects/558342/commemorative-head", "keyword": "Sculpture", "people": "nan", "repatriated": "n"}, "geometry": { "type": "Point","coordinates": [-71.114048, 42.30438100000001] } },
{"type": "Feature", "id": 2, "properties": {"index": "2", "item": "3", "name": "Mounted ruler (so-called Horseman)", "institution": "MFA", "img_url": "https://collections.mfa.org/internal/media/dispatcher/1307262/preview", "item_link": "https://collections.mfa.org/objects/558345/mounted-ruler-socalled-horseman", "keyword": "Sculpture", "people": "nan", "repatriated": "n"}, "geometry": { "type": "Point","coordinates": [-71.074048, 42.309381] } },
{"type": "Feature", "id": 3, "properties": {"index": "3", "item": "4", "name": "Relief plaque showing a Portuguese", "institution": "MFA", "img_url": "https://collections.mfa.org/internal/media/dispatcher/1224580/preview", "item_link": "https://collections.mfa.org/objects/558359/relief-plaque-showing-a-portuguese", "keyword": "Sculpture", "people": "nan", "repatriated": "n"}, "geometry": { "type": "Point","coordinates": [-71.104048, 42.359381000000006] } },
{"type": "Feature", "id": 4, "properties": {"index": "4", "item": "5", "name": "Relief plaque showing a king (Oba) or official with a staff of proclamation", "institution": "MFA", "img_url": "https://collections.mfa.org/internal/media/dispatcher/1224578/preview", "item_link": "https://collections.mfa.org/objects/558358/relief-plaque-showing-a-king-oba-or-official-with-a-staff", "keyword": "Plaque", "people": "nan", "repatriated": "n"}, "geometry": { "type": "Point","coordinates": [-71.134048, 42.309381] } },
{"type": "Feature", "id": 5, "properties": {"index": "5", "item": "6", "name": "Relief plaque showing a junior court official", "institution": "MFA", "img_url": "https://collections.mfa.org/internal/media/dispatcher/1225837/preview", "item_link": "https://collections.mfa.org/objects/558357/relief-plaque-showing-a-junior-court-official", "keyword": "Plaque", "people": "nan", "repatriated": "n"}, "geometry": { "type": "Point","coordinates": [-71.094048, 42.324381] } },
{"type": "Feature", "id": 6, "properties": {"index": "6", "item": "7", "name": "Relief plaque showing a king (Oba) dominating leopards", "institution": "MFA", "img_url": "https://collections.mfa.org/internal/media/dispatcher/1224576/preview", "item_link": "https://collections.mfa.org/objects/558356/relief-plaque-showing-a-king-oba-dominating-leopards", "keyword": "Plaque", "people": "nan", "repatriated": "n"}, "geometry": { "type": "Point","coordinates": [-71.099048, 42.344381000000006] } },
{"type": "Feature", "id": 7, "properties": {"index": "7", "item": "8", "name": "Relief plaque showing a warrior", "institution": "MFA", "img_url": "https://collections.mfa.org/internal/media/dispatcher/1224574/preview", "item_link": "https://collections.mfa.org/objects/558355/relief-plaque-showing-a-warrior", "keyword": "Plaque", "people": "nan", "repatriated": "n"}, "geometry": { "type": "Point","coordinates": [-71.099048, 42.30438100000001] } },
{"type": "Feature", "id": 8, "properties": {"index": "8", "item": "9", "name": "Relief plaque showing a crocodile with mudfish", "institution": "MFA", "img_url": "https://collections.mfa.org/internal/media/dispatcher/1224594/preview", "item_link": "https://collections.mfa.org/objects/558354/relief-plaque-showing-a-crocodile-with-mudfish", "keyword": "Plaque", "people": "nan", "repatriated": "n"}, "geometry": { "type": "Point","coordinates": [-71.089048, 42.289381000000006] } },
{"type": "Feature", "id": 9, "properties": {"index": "9", "item": "10", "name": "Relief plaque showing a painted youth", "institution": "MFA", "img_url": "https://collections.mfa.org/internal/media/dispatcher/1224593/preview", "item_link": "https://collections.mfa.org/objects/558352/relief-plaque-showing-a-painted-youth", "keyword": "Plaque", "people": "nan", "repatriated": "n"}, "geometry": { "type": "Point","coordinates": [-71.089048, 42.289381000000006] } },
{"type": "Feature", "id": 10, "properties": {"index": "10", "item": "11", "name": "Relief plaque showing a mudfish", "institution": "MFA", "img_url": "https://collections.mfa.org/internal/media/dispatcher/1224596/preview", "item_link": "https://collections.mfa.org/objects/558360/relief-plaque-showing-a-mudfish", "keyword": "Plaque", "people": "nan", "repatriated": "n"}, "geometry": { "type": "Point","coordinates": [-71.104048, 42.329381000000005] } },
{"type": "Feature", "id": 11, "properties": {"index": "11", "item": "12", "name": "Relief plaque showing two warriors", "institution": "MFA", "img_url": "https://collections.mfa.org/internal/media/dispatcher/1224540/preview", "item_link": "https://collections.mfa.org/objects/558362/relief-plaque-showing-two-warriors", "keyword": "Plaque", "people": "nan", "repatriated": "n"}, "geometry": { "type": "Point","coordinates": [-71.059048, 42.299381000000004] } },
{"type": "Feature", "id": 12, "properties": {"index": "12", "item": "13", "name": "Relief plaque showing two officials with raised swords", "institution": "MFA", "img_url": "https://collections.mfa.org/internal/media/dispatcher/1224541/preview", "item_link": "https://collections.mfa.org/objects/558363/relief-plaque-showing-two-officials-with-raised-swords", "keyword": "Plaque", "people": "nan", "repatriated": "n"}, "geometry": { "type": "Point","coordinates": [-71.144048, 42.309381] } },
{"type": "Feature", "id": 13, "properties": {"index": "13", "item": "14", "name": "Relief plaque showing three officials", "institution": "MFA", "img_url": "https://collections.mfa.org/internal/media/dispatcher/1224542/preview", "item_link": "https://collections.mfa.org/objects/558364/relief-plaque-showing-three-officials", "keyword": "Plaque", "people": "nan", "repatriated": "n"}, "geometry": { "type": "Point","coordinates": [-71.084048, 42.334381] } },
{"type": "Feature", "id": 14, "properties": {"index": "14", "item": "15", "name": "Relief plaque showing a dignitary with drum and two attendants striking gongs", "institution": "MFA", "img_url": "https://collections.mfa.org/internal/media/dispatcher/1224579/preview", "item_link": "https://collections.mfa.org/objects/558365/relief-plaque-showing-a-dignitary-with-drum-and-two-attendan", "keyword": "Plaque", "people": "nan", "repatriated": "n"}, "geometry": { "type": "Point","coordinates": [-71.124048, 42.374381] } },
{"type": "Feature", "id": 15, "properties": {"index": "15", "item": "16", "name": "Relief plaque showing a war chief with two attendants", "institution": "MFA", "img_url": "https://collections.mfa.org/internal/media/dispatcher/1224581/preview", "item_link": "https://collections.mfa.org/objects/558366/relief-plaque-showing-a-war-chief-with-two-attendants", "keyword": "Plaque", "people": "nan", "repatriated": "n"}, "geometry": { "type": "Point","coordinates": [-71.089048, 42.349381] } },
{"type": "Feature", "id": 16, "properties": {"index": "16", "item": "17", "name": "Relief plaque showing a war chief and two attendants", "institution": "MFA", "img_url": "https://collections.mfa.org/internal/media/dispatcher/1224543/preview", "item_link": "https://collections.mfa.org/objects/558367/relief-plaque-showing-a-war-chief-and-two-attendants", "keyword": "Plaque", "people": "nan", "repatriated": "n"}, "geometry": { "type": "Point","coordinates": [-79.81571799999999, 36.15707109999999] } },
{"type": "Feature", "id": 17, "properties": {"index": "17", "item": "18", "name": "Relief plaque showing a battle scene", "institution": "MFA", "img_url": "https://collections.mfa.org/internal/media/dispatcher/1225838/preview", "item_link": "https://collections.mfa.org/objects/558368/relief-plaque-showing-a-battle-scene?", "keyword": "Plaque", "people": "nan", "repatriated": "n"}, "geometry": { "type": "Point","coordinates": [-71.064048, 42.379381] } },
{"type": "Feature", "id": 18, "properties": {"index": "18", "item": "19", "name": "Relief Plaque: Portuguese with Linstock and Five Manillas (© KHM-Museumsverband)", "institution": "Weltmuseum", "img_url": "./assets/artifacts/Weltmuseum_441074.jpg", "item_link": "https://www.weltmuseumwien.at/en/object/441074/", "keyword": "Plaque", "people": "nan", "repatriated": "n"}, "geometry": { "type": "Point","coordinates": [16.4137613, 48.249970000000005] } },
{"type": "Feature", "id": 19, "properties": {"index": "19", "item": "20", "name": "Relief Plaque: Dignitary with eben Sword (© KHM-Museumsverband)", "institution": "Weltmuseum", "img_url": "./assets/artifacts/Weltmuseum_440947.jpg", "item_link": "https://www.weltmuseumwien.at/en/object/440947/", "keyword": "Plaque", "people": "nan", "repatriated": "n"}, "geometry": { "type": "Point","coordinates": [16.3537613, 48.23997] } },
{"type": "Feature", "id": 20, "properties": {"index": "20", "item": "21", "name": "Head of an Oba", "institution": "MET", "img_url": "https://collectionapi.metmuseum.org/api/collection/v1/iiif/310766/1790168/main-image", "item_link": "https://www.metmuseum.org/art/collection/search/310766", "keyword": "Sculpture", "people": "nan", "repatriated": "n"}, "geometry": { "type": "Point","coordinates": [-73.953244, 40.81443659999999] } },
{"type": "Feature", "id": 21, "properties": {"index": "21", "item": "22", "name": "Plaque: Equestrian Oba and Attendants", "institution": "MET", "img_url": "https://collectionapi.metmuseum.org/api/collection/v1/iiif/310752/683015/main-image", "item_link": "https://www.metmuseum.org/art/collection/search/310752", "keyword": "Plaque", "people": "nan", "repatriated": "n"}, "geometry": { "type": "Point","coordinates": [-73.993244, 40.774436599999994] } },
{"type": "Feature", "id": 22, "properties": {"index": "22", "item": "23", "name": "Plaque: Warrior and Attendants", "institution": "MET", "img_url": "https://collectionapi.metmuseum.org/api/collection/v1/iiif/316393/666922/main-image", "item_link": "https://www.metmuseum.org/art/collection/search/316393", "keyword": "Plaque", "people": "nan", "repatriated": "n"}, "geometry": { "type": "Point","coordinates": [-73.9709728, 40.692775299999994] } },
{"type": "Feature", "id": 23, "properties": {"index": "23", "item": "24", "name": "Male Figure: Court Official", "institution": "MET", "img_url": "https://collectionapi.metmuseum.org/api/collection/v1/iiif/316503/666923/main-image", "item_link": "https://www.metmuseum.org/art/collection/search/316503", "keyword": "Sculpture", "people": "nan", "repatriated": "n"}, "geometry": { "type": "Point","coordinates": [-73.968244, 40.829436599999994] } },
{"type": "Feature", "id": 24, "properties": {"index": "24", "item": "25", "name": "Queen Mother Pendant Mask: Iyoba", "institution": "MET", "img_url": "https://collectionapi.metmuseum.org/api/collection/v1/iiif/318622/674997/main-image", "item_link": "https://www.metmuseum.org/art/collection/search/318622", "keyword": "Mask", "people": "nan", "repatriated": "n"}, "geometry": { "type": "Point","coordinates": [-73.98824400000001, 40.8094366] } },
{"type": "Feature", "id": 25, "properties": {"index": "25", "item": "26", "name": "Head plastic", "institution": "GrassiVoelkerkunde", "img_url": "https://skd-online-collection.skd.museum/large/374/91291fb1-6175-4eeb-a66e-2b84a5c7be2b.jpg", "item_link": "https://skd-online-collection.skd.museum/Details/Index/1799947", "keyword": "Sculpture", "people": "nan", "repatriated": "p"}, "geometry": { "type": "Point","coordinates": [12.4130747, 51.3596955] } },
{"type": "Feature", "id": 26, "properties": {"index": "26", "item": "27", "name": "Memorial head (uhunmwun-elao) from Udo", "institution": "GrassiVoelkerkunde", "img_url": "https://skd-online-collection.skd.museum/large/306/f66c423b-d0af-4144-867a-15056ed22976.jpg", "item_link": "https://skd-online-collection.skd.museum/Details/Index/1705486", "keyword": "Sculpture", "people": "nan", "repatriated": "p"}, "geometry": { "type": "Point","coordinates": [12.3230747, 51.3396955] } },
{"type": "Feature", "id": 27, "properties": {"index": "27", "item": "28", "name": "Relief plate: dignitary with sword and shield", "institution": "GrassiVoelkerkunde", "img_url": "https://skd-online-collection.skd.museum/large/377/f40952d0-0a4b-4b1e-b936-f76e0d49f868.jpg", "item_link": "https://skd-online-collection.skd.museum/Details/Index/1771052", "keyword": "Plaque", "people": "nan", "repatriated": "p"}, "geometry": { "type": "Point","coordinates": [12.3630747, 51.3546955] } },
{"type": "Feature", "id": 28, "properties": {"index": "28", "item": "29", "name": "Relief plate: three dignitaries with vessels", "institution": "GrassiVoelkerkunde", "img_url": "https://skd-online-collection.skd.museum/large/358/f2785636-3c03-43f5-ae8e-31fea78d7564.jpg", "item_link": "https://skd-online-collection.skd.museum/Details/Index/1795324", "keyword": "Plaque", "people": "nan", "repatriated": "p"}, "geometry": { "type": "Point","coordinates": [12.3480747, 51.3846955] } },
{"type": "Feature", "id": 29, "properties": {"index": "29", "item": "30", "name": "Arm Cuff", "institution": "GrassiVoelkerkunde", "img_url": "https://skd-online-collection.skd.museum/large/307/ba8e25e9-be3e-4c87-9b19-b8c8f2828990.jpg", "item_link": "https://skd-online-collection.skd.museum/Details/Index/1797494", "keyword": "Jewelry", "people": "nan", "repatriated": "p"}, "geometry": { "type": "Point","coordinates": [12.4130747, 51.3146955] } },
{"type": "Feature", "id": 30, "properties": {"index": "30", "item": "31", "name": "Relief plate: dignitaries", "institution": "GrassiVoelkerkunde", "img_url": "https://skd-online-collection.skd.museum/large/411/2a604b33-642b-4379-8a61-4129f187a4bd.jpg", "item_link": "https://skd-online-collection.skd.museum/Details/Index/1798404", "keyword": "Plaque", "people": "nan", "repatriated": "p"}, "geometry": { "type": "Point","coordinates": [12.3630747, 51.349695499999996] } },
{"type": "Feature", "id": 31, "properties": {"index": "31", "item": "32", "name": "Lidded jug with rich onamentals, iru vessel", "institution": "GrassiVoelkerkunde", "img_url": "https://skd-online-collection.skd.museum/large/31/38e906e6-5857-49e6-90d6-4e3a376f1973.jpg", "item_link": "https://skd-online-collection.skd.museum/Details/Index/1793509", "keyword": "Other", "people": "nan", "repatriated": "p"}, "geometry": { "type": "Point","coordinates": [12.3530747, 51.334695499999995] } },
{"type": "Feature", "id": 32, "properties": {"index": "32", "item": "33", "name": "Relief plate: Europeans (Portuguese) surrounded by five manillas", "institution": "GrassiVoelkerkunde", "img_url": "https://skd-online-collection.skd.museum/large/453/c71d53bc-b79c-4582-89c2-37833ce2839c.jpg", "item_link": "https://skd-online-collection.skd.museum/Details/Index/1804031", "keyword": "Plaque", "people": "nan", "repatriated": "p"}, "geometry": { "type": "Point","coordinates": [12.3780747, 51.374695499999994] } },
{"type": "Feature", "id": 33, "properties": {"index": "33", "item": "34", "name": "Arm Cuff (2)", "institution": "GrassiVoelkerkunde", "img_url": "https://skd-online-collection.skd.museum/large/37/3400db2a-6e22-4fc9-9b42-882cdaba4ee8.jpg", "item_link": "https://skd-online-collection.skd.museum/Details/Index/1779437", "keyword": "Jewelry", "people": "nan", "repatriated": "p"}, "geometry": { "type": "Point","coordinates": [12.3430747, 51.3596955] } },
{"type": "Feature", "id": 34, "properties": {"index": "34", "item": "35", "name": "altar", "institution": "British-Museum", "img_url": "https://media.britishmuseum.org/media/Repository/Documents/2014_10/9_9/c1cecb12_f9d8_4c30_94af_a3bf00a1d109/mid_00499296_001.jpg", "item_link": "https://www.britishmuseum.org/collection/object/E_Af1897-501", "keyword": "Other", "people": "nan", "repatriated": "n"}, "geometry": { "type": "Point","coordinates": [-0.07775829999999999, 51.502350899999996] } },
{"type": "Feature", "id": 35, "properties": {"index": "35", "item": "36", "name": "armlet", "institution": "British-Museum", "img_url": "https://media.britishmuseum.org/media/Repository/Documents/2020_1/27_14/9ce311c6_ea97_4410_bbde_ab4f00f409e5/mid_EAF27329_F.jpg", "item_link": "https://www.britishmuseum.org/collection/object/E_Af1897-518", "keyword": "Jewelry", "people": "nan", "repatriated": "n"}, "geometry": { "type": "Point","coordinates": [-0.1577583, 51.5323509] } },
{"type": "Feature", "id": 36, "properties": {"index": "36", "item": "37", "name": "armlet (2)", "institution": "British-Museum", "img_url": "https://media.britishmuseum.org/media/Repository/Documents/2014_9/30_7/3a7532b4_f566_4fce_8df3_a3b600767889/mid_00175061_001.jpg", "item_link": "https://www.britishmuseum.org/collection/object/E_Af1897-516", "keyword": "Jewelry", "people": "nan", "repatriated": "n"}, "geometry": { "type": "Point","coordinates": [-0.1677583, 51.5223509] } },
{"type": "Feature", "id": 37, "properties": {"index": "37", "item": "38", "name": "disc", "institution": "British-Museum", "img_url": "https://media.britishmuseum.org/media/Repository/Documents/2019_7/19_14/aef334c4_b3b7_4c99_9f6a_aa8f00eed3e1/mid_EAF27381_F.jpg", "item_link": "https://www.britishmuseum.org/collection/object/E_Af1897-505", "keyword": "other", "people": "nan", "repatriated": "n"}, "geometry": { "type": "Point","coordinates": [-0.10775829999999999, 51.502350899999996] } },
{"type": "Feature", "id": 38, "properties": {"index": "38", "item": "39", "name": "bell", "institution": "British-Museum", "img_url": "https://media.britishmuseum.org/media/Repository/Documents/2014_10/9_14/c7b6c8da_0208_4439_a226_a3bf00f1e5e8/mid_00522011_001.jpg", "item_link": "https://www.britishmuseum.org/collection/object/E_Af1897-498", "keyword": "other", "people": "nan", "repatriated": "n"}, "geometry": { "type": "Point","coordinates": [-0.08275829999999999, 51.4573509] } },
{"type": "Feature", "id": 39, "properties": {"index": "39", "item": "40", "name": "bell (2)", "institution": "British-Museum", "img_url": "https://media.britishmuseum.org/media/Repository/Documents/2019_3/25_12/c37ed641_9388_4b8f_bb19_aa1b00cd19fe/mid_EAF27411_F.jpg", "item_link": "https://www.britishmuseum.org/collection/object/E_Af1905-1201-3", "keyword": "other", "people": "nan", "repatriated": "n"}, "geometry": { "type": "Point","coordinates": [-0.1377583, 51.5523509] } },
{"type": "Feature", "id": 40, "properties": {"index": "40", "item": "41", "name": "bracelet; bangle", "institution": "British-Museum", "img_url": "https://media.britishmuseum.org/media/Repository/Documents/2019_3/25_12/f9962987_051f_4ce6_8935_aa1b00ccc9d0/mid_EAF26636_F.jpg", "item_link": "https://www.britishmuseum.org/collection/object/E_Af1897-557", "keyword": "other", "people": "nan", "repatriated": "n"}, "geometry": { "type": "Point","coordinates": [-0.17775829999999998, 51.5373509] } },
{"type": "Feature", "id": 41, "properties": {"index": "41", "item": "42", "name": "figure", "institution": "British-Museum", "img_url": "https://media.britishmuseum.org/media/Repository/Documents/2017_8/30_11/acbea964_cfb2_4d89_8862_a7df00bdbdf2/mid_EAF14937.jpg", "item_link": "https://www.britishmuseum.org/collection/object/E_Af1905-1201-1", "keyword": "Sculpture", "people": "nan", "repatriated": "n"}, "geometry": { "type": "Point","coordinates": [-0.1577583, 51.5173509] } },
{"type": "Feature", "id": 42, "properties": {"index": "42", "item": "43", "name": "Dignitaries with attendants", "institution": "Ethnologisches-Berlin", "img_url": "./assets/artifacts/Ethnologisches-Berlin_743023.jpg", "item_link": "http://www.smb-digital.de/eMuseumPlus?service=ExternalInterface&objectId=743023", "keyword": "Plaque", "people": "nan", "repatriated": "m"}, "geometry": { "type": "Point","coordinates": [13.404954, 52.475006599999986] } },
{"type": "Feature", "id": 43, "properties": {"index": "43", "item": "44", "name": "King with accompanying figures", "institution": "Ethnologisches-Berlin", "img_url": "./assets/artifacts/Ethnologisches-Berlin_210443.jpg", "item_link": "http://www.smb-digital.de/eMuseumPlus?service=ExternalInterface&objectId=210443", "keyword": "Plaque", "people": "nan", "repatriated": "m"}, "geometry": { "type": "Point","coordinates": [13.434954, 52.54000659999999] } },
{"type": "Feature", "id": 44, "properties": {"index": "44", "item": "45", "name": "Queen mother; fragment of an altar group", "institution": "Ethnologisches-Berlin", "img_url": "./assets/artifacts/Ethnologisches-Berlin_210772.jpg", "item_link": "http://www.smb-digital.de/eMuseumPlus?service=ExternalInterface&objectId=210772", "keyword": "Sculpture", "people": "nan", "repatriated": "m"}, "geometry": { "type": "Point","coordinates": [13.414954, 52.515006599999985] } },
{"type": "Feature", "id": 45, "properties": {"index": "45", "item": "46", "name": "Chameleon", "institution": "Ethnologisches-Berlin", "img_url": "./assets/artifacts/Ethnologisches-Berlin_210809.jpg", "item_link": "http://www.smb-digital.de/eMuseumPlus?service=ExternalInterface&objectId=210809", "keyword": "Sculpture", "people": "nan", "repatriated": "m"}, "geometry": { "type": "Point","coordinates": [13.454954, 52.475006599999986] } },
{"type": "Feature", "id": 46, "properties": {"index": "46", "item": "47", "name": "Stuhlbein (Leg of a chair)", "institution": "Ethnologisches-Berlin", "img_url": "./assets/artifacts/Ethnologisches-Berlin_210836.jpg", "item_link": "http://www.smb-digital.de/eMuseumPlus?service=ExternalInterface&objectId=210836", "keyword": "Other", "people": "nan", "repatriated": "m"}, "geometry": { "type": "Point","coordinates": [13.429954, 52.500006599999985] } }
]}