{
"type": "FeatureCollection", 
"features": [
{"type": "Feature", "id": 21, "properties": {"index": "21", "item": "22", "name": "Plaque: Equestrian Oba and Attendants", "institution": "MET", "img_url": "https://collectionapi.metmuseum.org/api/collection/v1/iiif/310752/683015/main-image", "item_link": "https://www.metmuseum.org/art/collection/search/310752", "keyword": "Plaque", "people": "nan", "repatriated": "n"}, "geometry": { "type": "Point","coordinates": [-73.978244, 40.764436599999996] } },
{"type": "Feature", "id": 22, "properties": {"index": "22", "item": "23", "name": "Plaque: Warrior and Attendants", "institution": "MET", "img_url": "https://collectionapi.metmuseum.org/api/collection/v1/iiif/316393/666922/main-image", "item_link": "https://www.metmuseum.org/art/collection/search/316393", "keyword": "Plaque", "people": "nan", "repatriated": "n"}, "geometry": { "type": "Point","coordinates": [-73.9709728, 40.7427753] } },
{"type": "Feature", "id": 23, "properties": {"index": "23", "item": "24", "name": "Male Figure: Court Official", "institution": "MET", "img_url": "https://collectionapi.metmuseum.org/api/collection/v1/iiif/316503/666923/main-image", "item_link": "https://www.metmuseum.org/art/collection/search/316503", "keyword": "Sculpture", "people": "nan", "repatriated": "n"}, "geometry": { "type": "Point","coordinates": [-73.983244, 40.7294366] } },
{"type": "Feature", "id": 24, "properties": {"index": "24", "item": "25", "name": "Queen Mother Pendant Mask: Iyoba", "institution": "MET", "img_url": "https://collectionapi.metmuseum.org/api/collection/v1/iiif/318622/674997/main-image", "item_link": "https://www.metmuseum.org/art/collection/search/318622", "keyword": "Mask", "people": "nan", "repatriated": "n"}, "geometry": { "type": "Point","coordinates": [-73.95824400000001, 40.749436599999996] } },
{"type": "Feature", "id": 25, "properties": {"index": "25", "item": "26", "name": "Head plastic", "institution": "Grassi-Voelkerkunde", "img_url": "http://skd-online-collection.skd.museum/mediencreate/1689374", "item_link": "https://skd-online-collection.skd.museum/Details/Index/1799947", "keyword": "Sculpture", "people": "nan", "repatriated": "p"}, "geometry": { "type": "Point","coordinates": [12.3730747, 51.389695499999995] } },
{"type": "Feature", "id": 26, "properties": {"index": "26", "item": "27", "name": "Memorial head (uhunmwun-elao) from Udo", "institution": "Grassi-Voelkerkunde", "img_url": "http://skd-online-collection.skd.museum/mediencreate/1048806", "item_link": "https://skd-online-collection.skd.museum/Details/Index/1705486", "keyword": "Sculpture", "people": "nan", "repatriated": "p"}, "geometry": { "type": "Point","coordinates": [12.4230747, 51.334695499999995] } },
{"type": "Feature", "id": 27, "properties": {"index": "27", "item": "28", "name": "Relief plate: dignitary with sword and shield", "institution": "Grassi-Voelkerkunde", "img_url": "http://skd-online-collection.skd.museum/mediencreate/1768377", "item_link": "https://skd-online-collection.skd.museum/Details/Index/1771052", "keyword": "Plaque", "people": "nan", "repatriated": "p"}, "geometry": { "type": "Point","coordinates": [12.3280747, 51.389695499999995] } },
{"type": "Feature", "id": 28, "properties": {"index": "28", "item": "29", "name": "Relief plate: three dignitaries with vessels", "institution": "Grassi-Voelkerkunde", "img_url": "http://skd-online-collection.skd.museum/mediencreate/1748358", "item_link": "https://skd-online-collection.skd.museum/Details/Index/1795324", "keyword": "Plaque", "people": "nan", "repatriated": "p"}, "geometry": { "type": "Point","coordinates": [12.3280747, 51.3146955] } },
{"type": "Feature", "id": 29, "properties": {"index": "29", "item": "30", "name": "Arm Cuff", "institution": "Grassi-Voelkerkunde", "img_url": "http://skd-online-collection.skd.museum/mediencreate/1705307", "item_link": "https://skd-online-collection.skd.museum/Details/Index/1797494", "keyword": "Jewelry", "people": "nan", "repatriated": "p"}, "geometry": { "type": "Point","coordinates": [12.333074700000001, 51.3246955] } },
{"type": "Feature", "id": 30, "properties": {"index": "30", "item": "31", "name": "Relief plate: dignitaries", "institution": "Grassi-Voelkerkunde", "img_url": "http://skd-online-collection.skd.museum/mediencreate/1755911", "item_link": "https://skd-online-collection.skd.museum/Details/Index/1798404", "keyword": "Plaque", "people": "nan", "repatriated": "p"}, "geometry": { "type": "Point","coordinates": [12.3930747, 51.374695499999994] } },
{"type": "Feature", "id": 31, "properties": {"index": "31", "item": "32", "name": "Lidded jug with rich onamentals, iru vessel", "institution": "Grassi-Voelkerkunde", "img_url": "http://skd-online-collection.skd.museum/mediencreate/1821531", "item_link": "https://skd-online-collection.skd.museum/Details/Index/1793509", "keyword": "Other", "people": "nan", "repatriated": "p"}, "geometry": { "type": "Point","coordinates": [12.3530747, 51.3846955] } },
{"type": "Feature", "id": 32, "properties": {"index": "32", "item": "33", "name": "Relief plate: Europeans (Portuguese) surrounded by five manillas", "institution": "Grassi-Voelkerkunde", "img_url": "http://skd-online-collection.skd.museum/mediencreate/1757453", "item_link": "https://skd-online-collection.skd.museum/Details/Index/1804031", "keyword": "Plaque", "people": "nan", "repatriated": "p"}, "geometry": { "type": "Point","coordinates": [12.3430747, 51.3546955] } },
{"type": "Feature", "id": 33, "properties": {"index": "33", "item": "34", "name": "Arm Cuff (2)", "institution": "Grassi-Voelkerkunde", "img_url": "http://skd-online-collection.skd.museum/mediencreate/1706537", "item_link": "https://skd-online-collection.skd.museum/Details/Index/1779437", "keyword": "Jewelry", "people": "nan", "repatriated": "p"}, "geometry": { "type": "Point","coordinates": [12.3680747, 51.3096955] } },
{"type": "Feature", "id": 34, "properties": {"index": "34", "item": "35", "name": "altar", "institution": "British-Museum", "img_url": "https://media.britishmuseum.org/media/Repository/Documents/2014_10/9_9/c1cecb12_f9d8_4c30_94af_a3bf00a1d109/mid_00499296_001.jpg", "item_link": "https://www.britishmuseum.org/collection/object/E_Af1897-501", "keyword": "Other", "people": "nan", "repatriated": "n"}, "geometry": { "type": "Point","coordinates": [-0.17775829999999998, 51.4773509] } },
{"type": "Feature", "id": 35, "properties": {"index": "35", "item": "36", "name": "armlet", "institution": "British-Museum", "img_url": "https://media.britishmuseum.org/media/Repository/Documents/2020_1/27_14/9ce311c6_ea97_4410_bbde_ab4f00f409e5/mid_EAF27329_F.jpg", "item_link": "https://www.britishmuseum.org/collection/object/E_Af1897-518", "keyword": "Jewelry", "people": "nan", "repatriated": "n"}, "geometry": { "type": "Point","coordinates": [-0.1027583, 51.5523509] } },
{"type": "Feature", "id": 36, "properties": {"index": "36", "item": "37", "name": "armlet (2)", "institution": "British-Museum", "img_url": "https://media.britishmuseum.org/media/Repository/Documents/2014_9/30_7/3a7532b4_f566_4fce_8df3_a3b600767889/mid_00175061_001.jpg", "item_link": "https://www.britishmuseum.org/collection/object/E_Af1897-516", "keyword": "Jewelry", "people": "nan", "repatriated": "n"}, "geometry": { "type": "Point","coordinates": [-0.17275829999999998, 51.502350899999996] } },
{"type": "Feature", "id": 37, "properties": {"index": "37", "item": "38", "name": "disc", "institution": "British-Museum", "img_url": "https://media.britishmuseum.org/media/Repository/Documents/2019_7/19_14/aef334c4_b3b7_4c99_9f6a_aa8f00eed3e1/mid_EAF27381_F.jpg", "item_link": "https://www.britishmuseum.org/collection/object/E_Af1897-505", "keyword": "Other", "people": "nan", "repatriated": "n"}, "geometry": { "type": "Point","coordinates": [-0.1577583, 51.557350899999996] } },
{"type": "Feature", "id": 38, "properties": {"index": "38", "item": "39", "name": "bell", "institution": "British-Museum", "img_url": "https://media.britishmuseum.org/media/Repository/Documents/2014_10/9_14/c7b6c8da_0208_4439_a226_a3bf00f1e5e8/mid_00522011_001.jpg", "item_link": "https://www.britishmuseum.org/collection/object/E_Af1897-498", "keyword": "Other", "people": "nan", "repatriated": "n"}, "geometry": { "type": "Point","coordinates": [-0.11275829999999999, 51.4773509] } },
{"type": "Feature", "id": 39, "properties": {"index": "39", "item": "40", "name": "bell (2)", "institution": "British-Museum", "img_url": "https://media.britishmuseum.org/media/Repository/Documents/2019_3/25_12/c37ed641_9388_4b8f_bb19_aa1b00cd19fe/mid_EAF27411_F.jpg", "item_link": "https://www.britishmuseum.org/collection/object/E_Af1905-1201-3", "keyword": "Other", "people": "nan", "repatriated": "n"}, "geometry": { "type": "Point","coordinates": [-0.17275829999999998, 51.5073509] } },
{"type": "Feature", "id": 40, "properties": {"index": "40", "item": "41", "name": "bracelet; bangle", "institution": "British-Museum", "img_url": "https://media.britishmuseum.org/media/Repository/Documents/2019_3/25_12/f9962987_051f_4ce6_8935_aa1b00ccc9d0/mid_EAF26636_F.jpg", "item_link": "https://www.britishmuseum.org/collection/object/E_Af1897-557", "keyword": "Other", "people": "nan", "repatriated": "n"}, "geometry": { "type": "Point","coordinates": [-0.07775829999999999, 51.5323509] } },
{"type": "Feature", "id": 41, "properties": {"index": "41", "item": "42", "name": "figure", "institution": "British-Museum", "img_url": "https://media.britishmuseum.org/media/Repository/Documents/2017_8/30_11/acbea964_cfb2_4d89_8862_a7df00bdbdf2/mid_EAF14937.jpg", "item_link": "https://www.britishmuseum.org/collection/object/E_Af1905-1201-1", "keyword": "Sculpture", "people": "nan", "repatriated": "n"}, "geometry": { "type": "Point","coordinates": [-0.10775829999999999, 51.4573509] } },
{"type": "Feature", "id": 42, "properties": {"index": "42", "item": "43", "name": "Dignitaries with attendants", "institution": "Ethnologisches-Berlin", "img_url": "./assets/artifacts/Ethnologisches-Berlin_743023.jpg", "item_link": "http://www.smb-digital.de/eMuseumPlus?service=ExternalInterface&objectId=743023", "keyword": "Plaque", "people": "nan", "repatriated": "m"}, "geometry": { "type": "Point","coordinates": [13.359954, 52.475006599999986] } },
{"type": "Feature", "id": 43, "properties": {"index": "43", "item": "44", "name": "King with accompanying figures", "institution": "Ethnologisches-Berlin", "img_url": "./assets/artifacts/Ethnologisches-Berlin_210443.jpg", "item_link": "http://www.smb-digital.de/eMuseumPlus?service=ExternalInterface&objectId=210443", "keyword": "Plaque", "people": "nan", "repatriated": "m"}, "geometry": { "type": "Point","coordinates": [13.419954, 52.54000659999999] } },
{"type": "Feature", "id": 44, "properties": {"index": "44", "item": "45", "name": "Queen mother; fragment of an altar group", "institution": "Ethnologisches-Berlin", "img_url": "./assets/artifacts/Ethnologisches-Berlin_210772.jpg", "item_link": "http://www.smb-digital.de/eMuseumPlus?service=ExternalInterface&objectId=210772", "keyword": "Sculpture", "people": "nan", "repatriated": "m"}, "geometry": { "type": "Point","coordinates": [13.409954, 52.52500659999999] } },
{"type": "Feature", "id": 45, "properties": {"index": "45", "item": "46", "name": "Chameleon", "institution": "Ethnologisches-Berlin", "img_url": "./assets/artifacts/Ethnologisches-Berlin_210809.jpg", "item_link": "http://www.smb-digital.de/eMuseumPlus?service=ExternalInterface&objectId=210809", "keyword": "Sculpture", "people": "nan", "repatriated": "m"}, "geometry": { "type": "Point","coordinates": [13.444954, 52.48500659999999] } },
{"type": "Feature", "id": 46, "properties": {"index": "46", "item": "47", "name": "Stuhlbein (Leg of a chair)", "institution": "Ethnologisches-Berlin", "img_url": "./assets/artifacts/Ethnologisches-Berlin_210836.jpg", "item_link": "http://www.smb-digital.de/eMuseumPlus?service=ExternalInterface&objectId=210836", "keyword": "Other", "people": "nan", "repatriated": "m"}, "geometry": { "type": "Point","coordinates": [13.389954, 52.48000659999999] } },
{"type": "Feature", "id": 47, "properties": {"index": "47", "item": "48", "name": "Altargruppe (aseberia) Oba Akenzuas", "institution": "Ethnologisches-Berlin", "img_url": "./assets/artifacts/Ethnologisches-Berlin_209795.jpg", "item_link": "http://www.smb-digital.de/eMuseumPlus?service=ExternalInterface&objectId=209795", "keyword": "Sculpture", "people": "nan", "repatriated": "m"}, "geometry": { "type": "Point","coordinates": [13.454954, 52.54500659999999] } },
{"type": "Feature", "id": 48, "properties": {"index": "48", "item": "49", "name": "Altargruppe (aseberia) Oba Ewuakpes", "institution": "Ethnologisches-Berlin", "img_url": "./assets/artifacts/Ethnologisches-Berlin_209780.jpg", "item_link": "http://www.smb-digital.de/eMuseumPlus?service=ExternalInterface&objectId=209780", "keyword": "Sculpture", "people": "nan", "repatriated": "m"}, "geometry": { "type": "Point","coordinates": [13.364954000000001, 52.48500659999999] } },
{"type": "Feature", "id": 49, "properties": {"index": "49", "item": "50", "name": "Altargruppe", "institution": "Ethnologisches-Berlin", "img_url": "./assets/artifacts/Ethnologisches-Berlin_210878.jpg", "item_link": "http://www.smb-digital.de/eMuseumPlus?service=ExternalInterface&objectId=210878", "keyword": "Sculpture", "people": "nan", "repatriated": "m"}, "geometry": { "type": "Point","coordinates": [13.354954, 52.515006599999985] } },
{"type": "Feature", "id": 50, "properties": {"index": "50", "item": "51", "name": "Trophy head", "institution": "Ethnologisches-Berlin", "img_url": "./assets/artifacts/Ethnologisches-Berlin_210071.jpg", "item_link": "http://www.smb-digital.de/eMuseumPlus?service=ExternalInterface&objectId=210071", "keyword": "Sculpture", "people": "nan", "repatriated": "m"}, "geometry": { "type": "Point","coordinates": [13.379954, 52.475006599999986] } },
{"type": "Feature", "id": 51, "properties": {"index": "51", "item": "52", "name": "Memorial head of a king", "institution": "Ethnologisches-Berlin", "img_url": "./assets/artifacts/Ethnologisches-Berlin_210967.jpg", "item_link": "http://www.smb-digital.de/eMuseumPlus?service=ExternalInterface&objectId=210967", "keyword": "Sculpture", "people": "nan", "repatriated": "m"}, "geometry": { "type": "Point","coordinates": [13.369954, 52.56000659999999] } },
{"type": "Feature", "id": 52, "properties": {"index": "52", "item": "53", "name": "Human figure with outstretched hands", "institution": "Ethnologisches-Berlin", "img_url": "./assets/artifacts/Ethnologisches-Berlin_210969.jpg", "item_link": "http://www.smb-digital.de/eMuseumPlus?service=ExternalInterface&objectId=210969", "keyword": "Sculpture", "people": "nan", "repatriated": "m"}, "geometry": { "type": "Point","coordinates": [13.364954000000001, 52.515006599999985] } },
{"type": "Feature", "id": 53, "properties": {"index": "53", "item": "54", "name": "Commemorative head of a queen mother", "institution": "Ethnologisches-Berlin", "img_url": "./assets/artifacts/Ethnologisches-Berlin_211032.jpg", "item_link": "http://www.smb-digital.de/eMuseumPlus?service=ExternalInterface&objectId=211032", "keyword": "Sculpture", "people": "nan", "repatriated": "m"}, "geometry": { "type": "Point","coordinates": [13.449954, 52.52000659999999] } },
{"type": "Feature", "id": 54, "properties": {"index": "54", "item": "55", "name": "King with accompanying figures", "institution": "Ethnologisches-Berlin", "img_url": "./assets/artifacts/Ethnologisches-Berlin_211090.jpg", "item_link": "http://www.smb-digital.de/eMuseumPlus?service=ExternalInterface&objectId=211090", "keyword": "Plaque", "people": "nan", "repatriated": "m"}, "geometry": { "type": "Point","coordinates": [13.364954000000001, 52.55000659999999] } },
{"type": "Feature", "id": 55, "properties": {"index": "55", "item": "56", "name": "Bird hunting", "institution": "Ethnologisches-Berlin", "img_url": "./assets/artifacts/Ethnologisches-Berlin_211091.jpg", "item_link": "http://www.smb-digital.de/eMuseumPlus?service=ExternalInterface&objectId=211091", "keyword": "Plaque", "people": "nan", "repatriated": "m"}, "geometry": { "type": "Point","coordinates": [13.454954, 52.475006599999986] } },
{"type": "Feature", "id": 56, "properties": {"index": "56", "item": "57", "name": "King Ozolua (?)", "institution": "Ethnologisches-Berlin", "img_url": "./assets/artifacts/Ethnologisches-Berlin_211124.jpg", "item_link": "http://www.smb-digital.de/eMuseumPlus?service=ExternalInterface&objectId=211124", "keyword": "Plaque", "people": "nan", "repatriated": "m"}, "geometry": { "type": "Point","coordinates": [13.359954, 52.53500659999999] } },
{"type": "Feature", "id": 57, "properties": {"index": "57", "item": "58", "name": "Courtier with ekpokin container", "institution": "Ethnologisches-Berlin", "img_url": "./assets/artifacts/Ethnologisches-Berlin_211125.jpg", "item_link": "http://www.smb-digital.de/eMuseumPlus?service=ExternalInterface&objectId=211125", "keyword": "Plaque", "people": "nan", "repatriated": "m"}, "geometry": { "type": "Point","coordinates": [13.399954, 52.54500659999999] } },
{"type": "Feature", "id": 58, "properties": {"index": "58", "item": "59", "name": "Dignitaries", "institution": "Ethnologisches-Berlin", "img_url": "./assets/artifacts/Ethnologisches-Berlin_211126.jpg", "item_link": "http://www.smb-digital.de/eMuseumPlus?service=ExternalInterface&objectId=211126", "keyword": "Plaque", "people": "nan", "repatriated": "m"}, "geometry": { "type": "Point","coordinates": [13.414954, 52.54500659999999] } },
{"type": "Feature", "id": 59, "properties": {"index": "59", "item": "60", "name": "King or high dignitary", "institution": "Ethnologisches-Berlin", "img_url": "./assets/artifacts/Ethnologisches-Berlin_210083.jpg", "item_link": "http://www.smb-digital.de/eMuseumPlus?service=ExternalInterface&objectId=210083", "keyword": "Plaque", "people": "nan", "repatriated": "m"}, "geometry": { "type": "Point","coordinates": [13.439954, 52.555006599999984] } },
{"type": "Feature", "id": 60, "properties": {"index": "60", "item": "61", "name": "Snakehead", "institution": "Ethnologisches-Berlin", "img_url": "./assets/artifacts/Ethnologisches-Berlin_210085.jpg", "item_link": "http://www.smb-digital.de/eMuseumPlus?service=ExternalInterface&objectId=210085", "keyword": "Mask", "people": "nan", "repatriated": "m"}, "geometry": { "type": "Point","coordinates": [13.394954, 52.49500659999999] } },
{"type": "Feature", "id": 61, "properties": {"index": "61", "item": "62", "name": "Snakehead (2)", "institution": "Ethnologisches-Berlin", "img_url": "./assets/artifacts/Ethnologisches-Berlin_210086.jpg", "item_link": "http://www.smb-digital.de/eMuseumPlus?service=ExternalInterface&objectId=210086", "keyword": "Sculpture", "people": "nan", "repatriated": "m"}, "geometry": { "type": "Point","coordinates": [13.354954, 52.52000659999999] } },
{"type": "Feature", "id": 62, "properties": {"index": "62", "item": "63", "name": "Rattle stick", "institution": "Ethnologisches-Berlin", "img_url": "./assets/artifacts/Ethnologisches-Berlin_214791.jpg", "item_link": "http://www.smb-digital.de/eMuseumPlus?service=ExternalInterface&objectId=214791", "keyword": "Mask", "people": "nan", "repatriated": "m"}, "geometry": { "type": "Point","coordinates": [13.439954, 52.49000659999999] } },
{"type": "Feature", "id": 63, "properties": {"index": "63", "item": "64", "name": "Head of an Oba (2)", "institution": "Aberdeen-University", "img_url": "./assets/artifacts/AberdeenU_1.jpg", "item_link": "https://www.abdn.ac.uk/news/14790/", "keyword": "Sculpture", "people": "nan", "repatriated": "y"}, "geometry": { "type": "Point","coordinates": [-2.094278, 57.189717] } },
{"type": "Feature", "id": 64, "properties": {"index": "64", "item": "65", "name": "Door Bolt (© KHM-Museumsverband)", "institution": "Weltmuseum", "img_url": "./assets/artifacts/Weltmuseum_441057.jpg", "item_link": "https://www.weltmuseumwien.at/en/object/441057/", "keyword": "Other", "people": "nan", "repatriated": "n"}, "geometry": { "type": "Point","coordinates": [16.3837613, 48.169970000000006] } },
{"type": "Feature", "id": 0, "properties": {"index": "0", "item": "1", "name": "Commemorative head", "institution": "MFA", "img_url": "https://collections.mfa.org/internal/media/dispatcher/1226219/preview", "item_link": "https://collections.mfa.org/objects/558343/commemorative-head", "keyword": "Sculpture", "people": "nan", "repatriated": "n"}, "geometry": { "type": "Point","coordinates": [-71.059048, 42.319381] } },
{"type": "Feature", "id": 1, "properties": {"index": "1", "item": "2", "name": "Commemorative head (2)", "institution": "MFA", "img_url": "https://collections.mfa.org/internal/media/dispatcher/1225793/preview", "item_link": "https://collections.mfa.org/objects/558342/commemorative-head", "keyword": "Sculpture", "people": "nan", "repatriated": "n"}, "geometry": { "type": "Point","coordinates": [-71.094048, 42.389381] } },
{"type": "Feature", "id": 2, "properties": {"index": "2", "item": "3", "name": "Mounted ruler (so-called Horseman)", "institution": "MFA", "img_url": "https://collections.mfa.org/internal/media/dispatcher/1307262/preview", "item_link": "https://collections.mfa.org/objects/558345/mounted-ruler-socalled-horseman", "keyword": "Sculpture", "people": "nan", "repatriated": "n"}, "geometry": { "type": "Point","coordinates": [-71.084048, 42.339381] } },
{"type": "Feature", "id": 3, "properties": {"index": "3", "item": "4", "name": "Relief plaque showing a Portuguese", "institution": "MFA", "img_url": "https://collections.mfa.org/internal/media/dispatcher/1224580/preview", "item_link": "https://collections.mfa.org/objects/558359/relief-plaque-showing-a-portuguese", "keyword": "Sculpture", "people": "nan", "repatriated": "n"}, "geometry": { "type": "Point","coordinates": [-71.069048, 42.389381] } },
{"type": "Feature", "id": 4, "properties": {"index": "4", "item": "5", "name": "Relief plaque showing a king (Oba) or official with a staff of proclamation", "institution": "MFA", "img_url": "https://collections.mfa.org/internal/media/dispatcher/1224578/preview", "item_link": "https://collections.mfa.org/objects/558358/relief-plaque-showing-a-king-oba-or-official-with-a-staff", "keyword": "Plaque", "people": "nan", "repatriated": "n"}, "geometry": { "type": "Point","coordinates": [-71.084048, 42.319381] } },
{"type": "Feature", "id": 5, "properties": {"index": "5", "item": "6", "name": "Relief plaque showing a junior court official", "institution": "MFA", "img_url": "https://collections.mfa.org/internal/media/dispatcher/1225837/preview", "item_link": "https://collections.mfa.org/objects/558357/relief-plaque-showing-a-junior-court-official", "keyword": "Plaque", "people": "nan", "repatriated": "n"}, "geometry": { "type": "Point","coordinates": [-71.124048, 42.294381] } },
{"type": "Feature", "id": 6, "properties": {"index": "6", "item": "7", "name": "Relief plaque showing a king (Oba) dominating leopards", "institution": "MFA", "img_url": "https://collections.mfa.org/internal/media/dispatcher/1224576/preview", "item_link": "https://collections.mfa.org/objects/558356/relief-plaque-showing-a-king-oba-dominating-leopards", "keyword": "Plaque", "people": "nan", "repatriated": "n"}, "geometry": { "type": "Point","coordinates": [-71.129048, 42.359381000000006] } },
{"type": "Feature", "id": 7, "properties": {"index": "7", "item": "8", "name": "Relief plaque showing a warrior", "institution": "MFA", "img_url": "https://collections.mfa.org/internal/media/dispatcher/1224574/preview", "item_link": "https://collections.mfa.org/objects/558355/relief-plaque-showing-a-warrior", "keyword": "Plaque", "people": "nan", "repatriated": "n"}, "geometry": { "type": "Point","coordinates": [-71.044048, 42.364381] } },
{"type": "Feature", "id": 8, "properties": {"index": "8", "item": "9", "name": "Relief plaque showing a crocodile with mudfish", "institution": "MFA", "img_url": "https://collections.mfa.org/internal/media/dispatcher/1224594/preview", "item_link": "https://collections.mfa.org/objects/558354/relief-plaque-showing-a-crocodile-with-mudfish", "keyword": "Plaque", "people": "nan", "repatriated": "n"}, "geometry": { "type": "Point","coordinates": [-71.044048, 42.369381000000004] } },
{"type": "Feature", "id": 9, "properties": {"index": "9", "item": "10", "name": "Relief plaque showing a painted youth", "institution": "MFA", "img_url": "https://collections.mfa.org/internal/media/dispatcher/1224593/preview", "item_link": "https://collections.mfa.org/objects/558352/relief-plaque-showing-a-painted-youth", "keyword": "Plaque", "people": "nan", "repatriated": "n"}, "geometry": { "type": "Point","coordinates": [-71.084048, 42.379381] } },
{"type": "Feature", "id": 10, "properties": {"index": "10", "item": "11", "name": "Relief plaque showing a mudfish", "institution": "MFA", "img_url": "https://collections.mfa.org/internal/media/dispatcher/1224596/preview", "item_link": "https://collections.mfa.org/objects/558360/relief-plaque-showing-a-mudfish", "keyword": "Plaque", "people": "nan", "repatriated": "n"}, "geometry": { "type": "Point","coordinates": [-71.044048, 42.289381000000006] } },
{"type": "Feature", "id": 11, "properties": {"index": "11", "item": "12", "name": "Relief plaque showing two warriors", "institution": "MFA", "img_url": "https://collections.mfa.org/internal/media/dispatcher/1224540/preview", "item_link": "https://collections.mfa.org/objects/558362/relief-plaque-showing-two-warriors", "keyword": "Plaque", "people": "nan", "repatriated": "n"}, "geometry": { "type": "Point","coordinates": [-71.119048, 42.389381] } },
{"type": "Feature", "id": 12, "properties": {"index": "12", "item": "13", "name": "Relief plaque showing two officials with raised swords", "institution": "MFA", "img_url": "https://collections.mfa.org/internal/media/dispatcher/1224541/preview", "item_link": "https://collections.mfa.org/objects/558363/relief-plaque-showing-two-officials-with-raised-swords", "keyword": "Plaque", "people": "nan", "repatriated": "n"}, "geometry": { "type": "Point","coordinates": [-71.139048, 42.359381000000006] } },
{"type": "Feature", "id": 13, "properties": {"index": "13", "item": "14", "name": "Relief plaque showing three officials", "institution": "MFA", "img_url": "https://collections.mfa.org/internal/media/dispatcher/1224542/preview", "item_link": "https://collections.mfa.org/objects/558364/relief-plaque-showing-three-officials", "keyword": "Plaque", "people": "nan", "repatriated": "n"}, "geometry": { "type": "Point","coordinates": [-71.064048, 42.289381000000006] } },
{"type": "Feature", "id": 14, "properties": {"index": "14", "item": "15", "name": "Relief plaque showing a dignitary with drum and two attendants striking gongs", "institution": "MFA", "img_url": "https://collections.mfa.org/internal/media/dispatcher/1224579/preview", "item_link": "https://collections.mfa.org/objects/558365/relief-plaque-showing-a-dignitary-with-drum-and-two-attendan", "keyword": "Plaque", "people": "nan", "repatriated": "n"}, "geometry": { "type": "Point","coordinates": [-71.069048, 42.389381] } },
{"type": "Feature", "id": 15, "properties": {"index": "15", "item": "16", "name": "Relief plaque showing a war chief with two attendants", "institution": "MFA", "img_url": "https://collections.mfa.org/internal/media/dispatcher/1224581/preview", "item_link": "https://collections.mfa.org/objects/558366/relief-plaque-showing-a-war-chief-with-two-attendants", "keyword": "Plaque", "people": "nan", "repatriated": "n"}, "geometry": { "type": "Point","coordinates": [-71.064048, 42.30438100000001] } },
{"type": "Feature", "id": 16, "properties": {"index": "16", "item": "17", "name": "Relief plaque showing a war chief and two attendants", "institution": "MFA", "img_url": "https://collections.mfa.org/internal/media/dispatcher/1224543/preview", "item_link": "https://collections.mfa.org/objects/558367/relief-plaque-showing-a-war-chief-and-two-attendants", "keyword": "Plaque", "people": "nan", "repatriated": "n"}, "geometry": { "type": "Point","coordinates": [-71.044048, 42.379381] } },
{"type": "Feature", "id": 17, "properties": {"index": "17", "item": "18", "name": "Relief plaque showing a battle scene", "institution": "MFA", "img_url": "https://collections.mfa.org/internal/media/dispatcher/1225838/preview", "item_link": "https://collections.mfa.org/objects/558368/relief-plaque-showing-a-battle-scene?", "keyword": "Plaque", "people": "nan", "repatriated": "n"}, "geometry": { "type": "Point","coordinates": [-71.089048, 42.314381000000004] } },
{"type": "Feature", "id": 18, "properties": {"index": "18", "item": "19", "name": "Relief Plaque: Portuguese with Linstock and Five Manillas (© KHM-Museumsverband)", "institution": "Weltmuseum", "img_url": "./assets/artifacts/Weltmuseum_441074.jpg", "item_link": "https://www.weltmuseumwien.at/en/object/441074/", "keyword": "Plaque", "people": "nan", "repatriated": "n"}, "geometry": { "type": "Point","coordinates": [16.3387613, 48.20497] } },
{"type": "Feature", "id": 19, "properties": {"index": "19", "item": "20", "name": "Relief Plaque: Dignitary with eben Sword (© KHM-Museumsverband)", "institution": "Weltmuseum", "img_url": "./assets/artifacts/Weltmuseum_440947.jpg", "item_link": "https://www.weltmuseumwien.at/en/object/440947/", "keyword": "Plaque", "people": "nan", "repatriated": "n"}, "geometry": { "type": "Point","coordinates": [16.3987613, 48.169970000000006] } },
{"type": "Feature", "id": 20, "properties": {"index": "20", "item": "21", "name": "Head of an Oba", "institution": "MET", "img_url": "https://collectionapi.metmuseum.org/api/collection/v1/iiif/310766/1790168/main-image", "item_link": "https://www.metmuseum.org/art/collection/search/310766", "keyword": "Sculpture", "people": "nan", "repatriated": "n"}, "geometry": { "type": "Point","coordinates": [-73.938244, 40.7294366] } },

{"type": "Feature", "id": 65, "properties": {"index": "65", "item": "66", "name": "Altar Group with Iyoba (© KHM-Museumsverband)", "institution": "Weltmuseum", "img_url": "./assets/artifacts/Weltmuseum_441058.jpg", "item_link": "https://www.weltmuseumwien.at/en/object/441058/", "keyword": "Sculpture", "people": "nan", "repatriated": "n"}, "geometry": { "type": "Point","coordinates": [16.3337613, 48.224970000000006] } },
{"type": "Feature", "id": 66, "properties": {"index": "66", "item": "67", "name": "String with Coral Beads and Crotal Bells (© KHM-Museumsverband)", "institution": "Weltmuseum", "img_url": "./assets/artifacts/Weltmuseum_441059.jpg", "item_link": "https://www.weltmuseumwien.at/en/object/441059/", "keyword": "Jewelry", "people": "nan", "repatriated": "n"}, "geometry": { "type": "Point","coordinates": [16.3337613, 48.24497] } },
{"type": "Feature", "id": 67, "properties": {"index": "67", "item": "68", "name": "Figure of an Ewua Priest (© KHM-Museumsverband)", "institution": "Weltmuseum", "img_url": "./assets/artifacts/Weltmuseum_441060.jpg", "item_link": "https://www.weltmuseumwien.at/en/object/441060/", "keyword": "Sculpture", "people": "nan", "repatriated": "n"}, "geometry": { "type": "Point","coordinates": [16.3837613, 48.17497] } },
{"type": "Feature", "id": 68, "properties": {"index": "68", "item": "69", "name": "Commemorative Head of a King (© KHM-Museumsverband)", "institution": "Weltmuseum", "img_url": "./assets/artifacts/Weltmuseum_441078.jpg", "item_link": "https://www.weltmuseumwien.at/en/object/441078/", "keyword": "Sculpture", "people": "nan", "repatriated": "n"}, "geometry": { "type": "Point","coordinates": [16.4137613, 48.25497] } },
{"type": "Feature", "id": 69, "properties": {"index": "69", "item": "70", "name": "Ivory Bell with Figurative Clapper (© KHM-Museumsverband)", "institution": "Weltmuseum", "img_url": "./assets/artifacts/Weltmuseum_441080.jpg", "item_link": "https://www.weltmuseumwien.at/en/object/441080/", "keyword": "Other", "people": "nan", "repatriated": "n"}, "geometry": { "type": "Point","coordinates": [16.3137613, 48.22997] } },
{"type": "Feature", "id": 70, "properties": {"index": "70", "item": "71", "name": "Amulet Chain (© KHM-Museumsverband)", "institution": "Weltmuseum", "img_url": "./assets/artifacts/Weltmuseum_441083.jpg", "item_link": "https://www.weltmuseumwien.at/en/object/441083/", "keyword": "Jewelry", "people": "nan", "repatriated": "n"}, "geometry": { "type": "Point","coordinates": [16.3937613, 48.19997] } },
{"type": "Feature", "id": 71, "properties": {"index": "71", "item": "72", "name": "Staff of Office (© KHM-Museumsverband)", "institution": "Weltmuseum", "img_url": "./assets/artifacts/Weltmuseum_441070.jpg", "item_link": "https://www.weltmuseumwien.at/en/object/441070/", "keyword": "Other", "people": "nan", "repatriated": "n"}, "geometry": { "type": "Point","coordinates": [16.3837613, 48.22997] } },
{"type": "Feature", "id": 72, "properties": {"index": "72", "item": "73", "name": "Figure of a Court Dwarf (© KHM-Museumsverband)", "institution": "Weltmuseum", "img_url": "./assets/artifacts/Weltmuseum_441024.jpg", "item_link": "https://www.weltmuseumwien.at/en/object/441024/", "keyword": "Sculpture", "people": "nan", "repatriated": "n"}, "geometry": { "type": "Point","coordinates": [16.3837613, 48.21997] } },
{"type": "Feature", "id": 73, "properties": {"index": "73", "item": "74", "name": "Commemorative head of a queen mother (2)", "institution": "Varldskultur", "img_url": "http://collections.smvk.se/carlotta-em/web/image/zoom/1448617/1900.01.0001.jpg", "item_link": "http://collections.smvk.se/carlotta-em/web/object/1238907", "keyword": "Sculpture", "people": "nan", "repatriated": "n"}, "geometry": { "type": "Point","coordinates": [18.0751475, 59.35245359999999] } },
{"type": "Feature", "id": 74, "properties": {"index": "74", "item": "75", "name": "Mask", "institution": "Varldskultur", "img_url": "http://collections.smvk.se/carlotta-em/web/image/zoom/1485332/1900.01.0004.jpg", "item_link": "http://collections.smvk.se/carlotta-em/web/object/1238912", "keyword": "Mask", "people": "nan", "repatriated": "n"}, "geometry": { "type": "Point","coordinates": [18.080147500000002, 59.312453599999984] } },
{"type": "Feature", "id": 75, "properties": {"index": "75", "item": "76", "name": "Bronze plate with two warriors.", "institution": "Varldskultur", "img_url": "http://collections.smvk.se/carlotta-em/web/image/zoom/1448637/1900.01.0002.jpg", "item_link": "http://collections.smvk.se/carlotta-em/web/object/1238910", "keyword": "Plaque", "people": "nan", "repatriated": "n"}, "geometry": { "type": "Point","coordinates": [18.100147500000002, 59.33245359999999] } },
{"type": "Feature", "id": 76, "properties": {"index": "76", "item": "77", "name": "Bell (3)", "institution": "Varldskultur", "img_url": "http://collections.smvk.se/carlotta-em/web/image/zoom/1448661/1900.01.0005.jpg", "item_link": "http://collections.smvk.se/carlotta-em/web/object/1238913", "keyword": "Other", "people": "nan", "repatriated": "n"}, "geometry": { "type": "Point","coordinates": [18.1101475, 59.342453599999985] } },
{"type": "Feature", "id": 77, "properties": {"index": "77", "item": "78", "name": "Commemorative head (3)", "institution": "Varldskultur", "img_url": "http://collections.smvk.se/carlotta-em/web/image/zoom/1448685/1901.07.0001.jpg", "item_link": "http://collections.smvk.se/carlotta-em/web/object/1238819", "keyword": "Sculpture", "people": "nan", "repatriated": "n"}, "geometry": { "type": "Point","coordinates": [18.165147500000003, 59.32245359999999] } },
{"type": "Feature", "id": 78, "properties": {"index": "78", "item": "79", "name": "Large bronze rooster", "institution": "Varldskultur", "img_url": "http://collections.smvk.se/carlotta-em/web/image/zoom/1485400/1907.44.0377_3.jpg", "item_link": "http://collections.smvk.se/carlotta-em/web/object/1238763", "keyword": "Sculpture", "people": "nan", "repatriated": "n"}, "geometry": { "type": "Point","coordinates": [18.0701475, 59.33745359999999] } },
{"type": "Feature", "id": 79, "properties": {"index": "79", "item": "80", "name": "Figure group", "institution": "Varldskultur", "img_url": "http://collections.smvk.se/carlotta-em/web/image/zoom/1485444/1907.44.0380.jpg", "item_link": "http://collections.smvk.se/carlotta-em/web/object/1238789", "keyword": "Sculpture", "people": "nan", "repatriated": "n"}, "geometry": { "type": "Point","coordinates": [18.1251475, 59.28245359999999] } },
{"type": "Feature", "id": 80, "properties": {"index": "80", "item": "81", "name": "Commemorative head (4)", "institution": "Varldskultur", "img_url": "http://collections.smvk.se/carlotta-em/web/image/zoom/1282254/1907.44.0381.jpg", "item_link": "http://collections.smvk.se/carlotta-em/web/object/1187887", "keyword": "Sculpture", "people": "nan", "repatriated": "n"}, "geometry": { "type": "Point","coordinates": [18.0701475, 59.302453599999986] } },
{"type": "Feature", "id": 81, "properties": {"index": "81", "item": "82", "name": "Commemorative head (5)", "institution": "Varldskultur", "img_url": "http://collections.smvk.se/carlotta-em/web/image/zoom/1506875/1907.44.0382.jpg", "item_link": "http://collections.smvk.se/carlotta-em/web/object/1238791", "keyword": "Sculpture", "people": "nan", "repatriated": "n"}, "geometry": { "type": "Point","coordinates": [18.1401475, 59.312453599999984] } },
{"type": "Feature", "id": 82, "properties": {"index": "82", "item": "83", "name": "Commemorative head (6)", "institution": "Varldskultur", "img_url": "http://collections.smvk.se/carlotta-em/web/image/zoom/1485476/1907.44.0383.jpg", "item_link": "http://collections.smvk.se/carlotta-em/web/object/1238792", "keyword": "Sculpture", "people": "nan", "repatriated": "n"}, "geometry": { "type": "Point","coordinates": [18.1101475, 59.32245359999999] } },
{"type": "Feature", "id": 83, "properties": {"index": "83", "item": "84", "name": "Three Portuguese", "institution": "Varldskultur", "img_url": "http://collections.smvk.se/carlotta-em/web/image/zoom/1485496/1907.44.0386.jpg", "item_link": "http://collections.smvk.se/carlotta-em/web/object/1238795", "keyword": "Plaque", "people": "nan", "repatriated": "n"}, "geometry": { "type": "Point","coordinates": [18.1401475, 59.327453599999984] } },
{"type": "Feature", "id": 84, "properties": {"index": "84", "item": "85", "name": "Bronze plaque", "institution": "Varldskultur", "img_url": "http://collections.smvk.se/carlotta-em/web/image/zoom/1448833/1907.44.0387.jpg", "item_link": "http://collections.smvk.se/carlotta-em/web/object/1238796", "keyword": "Plaque", "people": "nan", "repatriated": "n"}, "geometry": { "type": "Point","coordinates": [18.1251475, 59.33245359999999] } },
{"type": "Feature", "id": 85, "properties": {"index": "85", "item": "86", "name": "Palace guard", "institution": "Varldskultur", "img_url": "http://collections.smvk.se/carlotta-em/web/image/zoom/1448857/1907.44.0388.jpg", "item_link": "http://collections.smvk.se/carlotta-em/web/object/1238797", "keyword": "Plaque", "people": "nan", "repatriated": "n"}, "geometry": { "type": "Point","coordinates": [18.1051475, 59.342453599999985] } },
{"type": "Feature", "id": 86, "properties": {"index": "86", "item": "87", "name": "Warrior chief", "institution": "Varldskultur", "img_url": "http://collections.smvk.se/carlotta-em/web/image/zoom/1448881/1907.44.0389.jpg", "item_link": "http://collections.smvk.se/carlotta-em/web/object/1238798", "keyword": "Plaque", "people": "nan", "repatriated": "n"}, "geometry": { "type": "Point","coordinates": [18.0901475, 59.33745359999999] } },
{"type": "Feature", "id": 87, "properties": {"index": "87", "item": "88", "name": "Bronze plaque (2)", "institution": "Varldskultur", "img_url": "http://collections.smvk.se/carlotta-em/web/image/zoom/1448921/1907.44.0391.jpg", "item_link": "http://collections.smvk.se/carlotta-em/web/object/1238800", "keyword": "Plaque", "people": "nan", "repatriated": "n"}, "geometry": { "type": "Point","coordinates": [18.0901475, 59.357453599999985] } },
{"type": "Feature", "id": 88, "properties": {"index": "88", "item": "89", "name": "Armband", "institution": "Varldskultur", "img_url": "http://collections.smvk.se/carlotta-em/web/image/zoom/1485516/1907.44.0399.jpg", "item_link": "http://collections.smvk.se/carlotta-em/web/object/1238809", "keyword": "Jewelry", "people": "nan", "repatriated": "n"}, "geometry": { "type": "Point","coordinates": [18.1401475, 59.28245359999999] } },
{"type": "Feature", "id": 89, "properties": {"index": "89", "item": "90", "name": "Box", "institution": "Varldskultur", "img_url": "http://collections.smvk.se/carlotta-em/web/image/zoom/1485560/1907.44.0402.jpg", "item_link": "http://collections.smvk.se/carlotta-em/web/object/1238813", "keyword": "Other", "people": "nan", "repatriated": "n"}, "geometry": { "type": "Point","coordinates": [18.1201475, 59.312453599999984] } },
{"type": "Feature", "id": 90, "properties": {"index": "90", "item": "91", "name": "Commemorative head (7)", "institution": "Smithsonian", "img_url": "https://ids.si.edu/ids/deliveryService?id=NMAfA-D20070144-000002", "item_link": "https://africa.si.edu/collections/objects/17104/commemorative-head-of-a-king", "keyword": "Sculpture", "people": "nan", "repatriated": "n"}, "geometry": { "type": "Point","coordinates": [-77.01551299999998, 38.842988] } },
{"type": "Feature", "id": 91, "properties": {"index": "91", "item": "92", "name": "Bracelet", "institution": "Smithsonian", "img_url": "https://ids.si.edu/ids/deliveryService?id=NMAfA-D20060325-000002", "item_link": "https://africa.si.edu/collections/objects/17103/bracelet", "keyword": "Jewelry", "people": "nan", "repatriated": "n"}, "geometry": { "type": "Point","coordinates": [-76.99551299999999, 38.852988] } },
{"type": "Feature", "id": 92, "properties": {"index": "92", "item": "93", "name": "Figure of a musketeer", "institution": "Smithsonian", "img_url": "https://ids.si.edu/ids/deliveryService?id=NMAfA-D20000359", "item_link": "https://africa.si.edu/collections/objects/8958/figure-of-a-musketeer", "keyword": "Sculpture", "people": "nan", "repatriated": "n"}, "geometry": { "type": "Point","coordinates": [-77.035513, 38.902988] } },
{"type": "Feature", "id": 93, "properties": {"index": "93", "item": "94", "name": "Bronze plaque (3)", "institution": "Smithsonian", "img_url": "https://ids.si.edu/ids/deliveryService?id=NMAfA-D20000356", "item_link": "https://africa.si.edu/collections/objects/8950/plaque", "keyword": "Plaque", "people": "nan", "repatriated": "n"}, "geometry": { "type": "Point","coordinates": [-77.01051299999999, 38.927988] } },
{"type": "Feature", "id": 94, "properties": {"index": "94", "item": "95", "name": "Male figure", "institution": "Smithsonian", "img_url": "https://ids.si.edu/ids/deliveryService?id=NMAfA-D20000367", "item_link": "https://africa.si.edu/collections/objects/8956/male-figure", "keyword": "Sculpture", "people": "nan", "repatriated": "n"}, "geometry": { "type": "Point","coordinates": [-77.04051299999999, 38.862988] } },
{"type": "Feature", "id": 95, "properties": {"index": "95", "item": "96", "name": "hip-pendant", "institution": "British-Museum", "img_url": "https://media.britishmuseum.org/media/Repository/Documents/2019_3/25_12/49a23946_61b8_43ee_90d1_aa1b00d23dc9/mid_EAF28097_F.jpg", "item_link": "https://www.britishmuseum.org/collection/object/E_Af1897-0-528", "keyword": "Jewelry", "people": "nan", "repatriated": "n"}, "geometry": { "type": "Point","coordinates": [-0.08275829999999999, 51.4573509] } },
{"type": "Feature", "id": 96, "properties": {"index": "96", "item": "97", "name": "rattle-staff musical instrument", "institution": "British-Museum", "img_url": "https://media.britishmuseum.org/media/Repository/Documents/2019_5/8_14/e3f5d6dd_9245_44b0_b77f_aa4700ed364b/mid_EAF14489_F.jpg", "item_link": "https://www.britishmuseum.org/collection/object/E_Af1897-532", "keyword": "Other", "people": "nan", "repatriated": "n"}, "geometry": { "type": "Point","coordinates": [-0.11275829999999999, 51.5073509] } },
{"type": "Feature", "id": 97, "properties": {"index": "97", "item": "98", "name": "sheath", "institution": "British-Museum", "img_url": "https://media.britishmuseum.org/media/Repository/Documents/2019_3/25_12/1bc35dd0_94b8_40de_91a5_aa1b00ca848f/mid_EAF14470_F.jpg", "item_link": "https://www.britishmuseum.org/collection/object/E_Af1897-510", "keyword": "Other", "people": "nan", "repatriated": "n"}, "geometry": { "type": "Point","coordinates": [-0.1277583, 51.5473509] } },
{"type": "Feature", "id": 98, "properties": {"index": "98", "item": "99", "name": "tobacco-pipe", "institution": "British-Museum", "img_url": "https://media.britishmuseum.org/media/Repository/Documents/2019_7/19_15/31ba61d9_df84_4bc4_9257_aa8f00fef891/mid_EAF14497_F.jpg", "item_link": "https://www.britishmuseum.org/collection/object/E_Af1897-546", "keyword": "Other", "people": "nan", "repatriated": "n"}, "geometry": { "type": "Point","coordinates": [-0.1177583, 51.4823509] } },
{"type": "Feature", "id": 99, "properties": {"index": "99", "item": "100", "name": "Box", "institution": "British-Museum", "img_url": "https://media.britishmuseum.org/media/Repository/Documents/2019_10/18_7/a6186867_c722_4bf3_9322_aaea007bf435/mid_EAF14462_RP_3Q.jpg", "item_link": "https://www.britishmuseum.org/collection/object/E_Af1897-500-a-b", "keyword": "Other", "people": "nan", "repatriated": "n"}, "geometry": { "type": "Point","coordinates": [-0.1577583, 51.4773509] } }
]}
