{
"type": "FeatureCollection", 
"features": [
{"type": "Feature", "id": 0, "properties": {"index": "0", "item": "1", "name": "Commemorative head", "institution": "MOMA", "img_url": "https://collections.mfa.org/internal/media/dispatcher/1226219/preview", "item_link": "https://collections.mfa.org/objects/558343/commemorative-head"}, "geometry": { "type": "Point","coordinates": [-71.054048, 42.314381000000004] } },
{"type": "Feature", "id": 1, "properties": {"index": "1", "item": "2", "name": "Commemorative head", "institution": "British-Museum", "img_url": "https://collections.mfa.org/internal/media/dispatcher/1225793/preview", "item_link": "https://collections.mfa.org/objects/558342/commemorative-head"}, "geometry": { "type": "Point","coordinates": [-71.064048, 42.30438100000001] } },
{"type": "Feature", "id": 2, "properties": {"index": "2", "item": "3", "name": "Mounted ruler (so-called Horseman)", "institution": "Smithsonian", "img_url": "https://collections.mfa.org/internal/media/dispatcher/1307262/preview", "item_link": "https://collections.mfa.org/objects/558345/mounted-ruler-socalled-horseman"}, "geometry": { "type": "Point","coordinates": [-71.069048, 42.334381] } },
{"type": "Feature", "id": 3, "properties": {"index": "3", "item": "4", "name": "Relief plaque showing a Portuguese", "institution": "London-Museum", "img_url": "https://collections.mfa.org/internal/media/dispatcher/1224580/preview", "item_link": "https://collections.mfa.org/objects/558359/relief-plaque-showing-a-portuguese"}, "geometry": { "type": "Point","coordinates": [-71.104048, 42.354381000000004] } },
{"type": "Feature", "id": 4, "properties": {"index": "4", "item": "5", "name": "Relief plaque showing a king (Oba) or official with a staff of proclamation", "institution": "MFA", "img_url": "https://collections.mfa.org/internal/media/dispatcher/1224578/preview", "item_link": "https://collections.mfa.org/objects/558358/relief-plaque-showing-a-king-oba-or-official-with-a-staff"}, "geometry": { "type": "Point","coordinates": [-71.119048, 42.324381] } },
{"type": "Feature", "id": 5, "properties": {"index": "5", "item": "6", "name": "Relief plaque showing a junior court official", "institution": "MFA", "img_url": "https://collections.mfa.org/internal/media/dispatcher/1225837/preview", "item_link": "https://collections.mfa.org/objects/558357/relief-plaque-showing-a-junior-court-official"}, "geometry": { "type": "Point","coordinates": [-71.129048, 42.319381] } },
{"type": "Feature", "id": 6, "properties": {"index": "6", "item": "7", "name": "Relief plaque showing a king (Oba) dominating leopards", "institution": "MFA", "img_url": "https://collections.mfa.org/internal/media/dispatcher/1224576/preview", "item_link": "https://collections.mfa.org/objects/558356/relief-plaque-showing-a-king-oba-dominating-leopards"}, "geometry": { "type": "Point","coordinates": [-71.044048, 42.389381] } },
{"type": "Feature", "id": 7, "properties": {"index": "7", "item": "8", "name": "Relief plaque showing a warrior", "institution": "MFA", "img_url": "https://collections.mfa.org/internal/media/dispatcher/1224574/preview", "item_link": "https://collections.mfa.org/objects/558355/relief-plaque-showing-a-warrior"}, "geometry": { "type": "Point","coordinates": [-71.109048, 42.289381000000006] } },
{"type": "Feature", "id": 8, "properties": {"index": "8", "item": "9", "name": "Relief plaque showing a crocodile with mudfish", "institution": "MFA", "img_url": "https://collections.mfa.org/internal/media/dispatcher/1224594/preview", "item_link": "https://collections.mfa.org/objects/558354/relief-plaque-showing-a-crocodile-with-mudfish"}, "geometry": { "type": "Point","coordinates": [-71.109048, 42.384381000000005] } },
{"type": "Feature", "id": 9, "properties": {"index": "9", "item": "10", "name": "Relief plaque showing a painted youth", "institution": "MFA", "img_url": "https://collections.mfa.org/internal/media/dispatcher/1224593/preview", "item_link": "https://collections.mfa.org/objects/558352/relief-plaque-showing-a-painted-youth"}, "geometry": { "type": "Point","coordinates": [-71.059048, 42.339381] } },
{"type": "Feature", "id": 10, "properties": {"index": "10", "item": "11", "name": "Relief plaque showing a mudfish", "institution": "MFA", "img_url": "https://collections.mfa.org/internal/media/dispatcher/1224596/preview", "item_link": "https://collections.mfa.org/objects/558360/relief-plaque-showing-a-mudfish"}, "geometry": { "type": "Point","coordinates": [-71.109048, 42.374381] } },
{"type": "Feature", "id": 11, "properties": {"index": "11", "item": "12", "name": "Relief plaque showing two warriors", "institution": "MFA", "img_url": "https://collections.mfa.org/internal/media/dispatcher/1224540/preview", "item_link": "https://collections.mfa.org/objects/558362/relief-plaque-showing-two-warriors"}, "geometry": { "type": "Point","coordinates": [-71.144048, 42.369381000000004] } },
{"type": "Feature", "id": 12, "properties": {"index": "12", "item": "13", "name": "Relief plaque showing two officials with raised swords", "institution": "MFA", "img_url": "https://collections.mfa.org/internal/media/dispatcher/1224541/preview", "item_link": "https://collections.mfa.org/objects/558363/relief-plaque-showing-two-officials-with-raised-swords"}, "geometry": { "type": "Point","coordinates": [-71.134048, 42.309381] } },
{"type": "Feature", "id": 13, "properties": {"index": "13", "item": "14", "name": "Relief plaque showing three officials", "institution": "MFA", "img_url": "https://collections.mfa.org/internal/media/dispatcher/1224542/preview", "item_link": "https://collections.mfa.org/objects/558364/relief-plaque-showing-three-officials"}, "geometry": { "type": "Point","coordinates": [-71.114048, 42.374381] } },
{"type": "Feature", "id": 14, "properties": {"index": "14", "item": "15", "name": "Relief plaque showing a dignitary with drum and two attendants striking gongs", "institution": "MFA", "img_url": "https://collections.mfa.org/internal/media/dispatcher/1224579/preview", "item_link": "https://collections.mfa.org/objects/558365/relief-plaque-showing-a-dignitary-with-drum-and-two-attendan"}, "geometry": { "type": "Point","coordinates": [-71.084048, 42.329381000000005] } },
{"type": "Feature", "id": 15, "properties": {"index": "15", "item": "16", "name": "Relief plaque showing a war chief with two attendants", "institution": "MFA", "img_url": "https://collections.mfa.org/internal/media/dispatcher/1224581/preview", "item_link": "https://collections.mfa.org/objects/558366/relief-plaque-showing-a-war-chief-with-two-attendants"}, "geometry": { "type": "Point","coordinates": [-71.059048, 42.30438100000001] } },
{"type": "Feature", "id": 16, "properties": {"index": "16", "item": "17", "name": "Relief plaque showing a war chief and two attendants", "institution": "MFA", "img_url": "https://collections.mfa.org/internal/media/dispatcher/1224543/preview", "item_link": "https://collections.mfa.org/objects/558367/relief-plaque-showing-a-war-chief-and-two-attendants"}, "geometry": { "type": "Point","coordinates": [-79.900718, 36.122071099999985] } }
]}
